[
            { "title": "Park Ko≈õciuszki", "location":     { "lat": 51.39852,  "lng": 21.158536 }, "type": "parks" },
            { "title": "Restauracja Parkowa", "location": { "lat": 51.400657, "lng": 21.158912 }, "type": "restaurants" },
            { "title": "Czarny kot", "location":          { "lat": 51.400976, "lng": 21.154544 }, "type": "restaurants" },
            { "title": "Church", "location":              { "lat": 51.397165, "lng": 21.156302 }, "type": "churches" },
            { "title": "Fire Station ", "location":        { "lat": 51.399346, "lng": 21.1489159 },"type": "others" },
            { "title": "stadium ", "location":             { "lat": 51.396659, "lng": 21.146002 }, "type": "sport" },
            { "title": "Museum ", "location":              { "lat": 51.402628, "lng": 21.14221 },  "type": "others" },
            { "title": "Train Station" , "location":       { "lat": 51.392504, "lng": 21.15379 },  "type": "others" },
            { "title": "Klasztor", "location":            { "lat": 51.401461, "lng": 21.147607 }, "type": "churches" },
            { "title": "Klasztor" , "location":            { "lat": 51.400935, "lng": 21.135835 }, "type": "churches" },
            { "title": "Biblioteque", "location":         { "lat": 51.399136, "lng": 21.153488 }, "type": "others" }
        ]